{"type":"FeatureCollection","features":[{"type":"Feature","properties":{"Name":"Red Barn Tree Farm","State":"NC","City":"Linville","Website":"https://www.linvillefallswinery.com/red-barn-tree-farm"},"geometry":{"type":"Point","coordinates":[-81.95695,36.07326]}},{"type":"Feature","properties":{"Name":"Sandy Hollar Farm","State":"NC","City":"Leicester","Website":"https://www.sandyhollarfarms.com/home"},"geometry":{"type":"Point","coordinates":[-82.85356,35.81451]}},{"type":"Feature","properties":{"Name":"Fir Heaven Sake Christmas Tree Farm","State":"NC","City":"Topton","Website":"https://www.facebook.com/people/Fir-Heaven-Sake-Christmas-Tree-Farm/100063496482631/"},"geometry":{"type":"Point","coordinates":[-83.73211,35.35324]}},{"type":"Feature","properties":{"Name":"Bear Valley Farm","State":"NC","City":"Glenville","Website":"http://www.bearvalleyfarm.com/"},"geometry":{"type":"Point","coordinates":[-83.20714,35.44182]}},{"type":"Feature","properties":{"Name":"Jordon Lake Christmas Tree Farm","State":"NC","City":"Apex","Website":"https://jordanlakechristmas.com/"},"geometry":{"type":"Point","coordinates":[-78.97394,35.79395]}},{"type":"Feature","properties":{"Name":"Mehaffey Tree Farm","State":"NC","City":"Waynesville","Website":"https://www.mehaffeytreefarm.com/index.php"},"geometry":{"type":"Point","coordinates":[-83.04156,35.56191]}},{"type":"Feature","properties":{"Name":"Boyd Mountain Christmas Tree Farm","State":"NC","City":"Waynesville","Website":"https://boydmountainchristmastreefarm.com/"},"geometry":{"type":"Point","coordinates":[-83.02905,35.55187]}},{"type":"Feature","properties":{"Name":"Sturgills Tree Farm","State":"NC","City":"Jefferson","Website":"http://www.sturgilltreefarms.com/"},"geometry":{"type":"Point","coordinates":[-81.50102,36.42552]}},{"type":"Feature","properties":{"Name":"Appalachian Evergreens","State":"NC","City":"Boone","Website":"https://www.appevergreens.com/"},"geometry":{"type":"Point","coordinates":[-81.65854,36.23591]}},{"type":"Feature","properties":{"Name":"Sugar Plum Farm","State":"NC","City":"Newland","Website":"http://sugarplumfarms.com/"},"geometry":{"type":"Point","coordinates":[-81.98997,36.05026]}},{"type":"Feature","properties":{"Name":"Helms Christmas Tree Farm","State":"NC","City":"Vale","Website":"https://helmschristmastreefarm.com/"},"geometry":{"type":"Point","coordinates":[-81.41789,35.51347]}},{"type":"Feature","properties":{"Name":"Smoky Mountain Christmas Tree Farm","State":"NC","City":"Waynesville","Website":"https://smokymountaintreefarm.com/"},"geometry":{"type":"Point","coordinates":[-83.03257,35.5585]}},{"type":"Feature","properties":{"Name":"Circle C Tree Farms","State":"NC","City":"Boone","Website":"http://www.circlectreefarm.com/home.html"},"geometry":{"type":"Point","coordinates":[-81.62545,36.21009]}},{"type":"Feature","properties":{"Name":"Panoramic View Christmas Tree Farm","State":"NC","City":"Boone","Website":"http://panoramictreefarm.com/"},"geometry":{"type":"Point","coordinates":[-81.64181,36.27264]}},{"type":"Feature","properties":{"Name":"C & J Christmas Tree Farm","State":"NC","City":"Boone","Website":"http://www.candjchristmastrees.com/index.html"},"geometry":{"type":"Point","coordinates":[-81.6503,36.23888]}},{"type":"Feature","properties":{"Name":"Mistletow Meadows ","State":"NC","City":"Laurel Springs","Website":"https://mistletoemeadows.com/"},"geometry":{"type":"Point","coordinates":[-81.30045,36.40476]}}]}