{"type":"FeatureCollection","features":[{"type":"Feature","properties":{"Name":"Red Barn Tree Farm","State":"NC","CIty":"Linville"},"geometry":{"type":"Point","coordinates":[-81.95695,36.07326]}},{"type":"Feature","properties":{"Name":"Sandy Hollar Farm","State":"NC","City":"Leicester"},"geometry":{"type":"Point","coordinates":[-82.85356,35.81451]}},{"type":"Feature","properties":{"Name":"Fir Heaven Sake Christmas Tree Farm","State":"NC","City":"Topton"},"geometry":{"type":"Point","coordinates":[-83.73211,35.35324]}},{"type":"Feature","properties":{"Name":"Bear Valley Farm","State":"NC","City":"Glenville"},"geometry":{"type":"Point","coordinates":[-83.20714,35.44182]}},{"type":"Feature","properties":{"Name":"Jordon Lake Christmas Tree Farm","State":"NC","City":"Apex"},"geometry":{"type":"Point","coordinates":[-78.97394,35.79395]}},{"type":"Feature","properties":{"Name":"Mehaffey Tree Farm","State":"NC","City":"Waynesville"},"geometry":{"type":"Point","coordinates":[-83.04156,35.56191]}},{"type":"Feature","properties":{"Name":"Boyd Mountain Christmas Tree Farm","State":"NC","City":"Waynesville"},"geometry":{"type":"Point","coordinates":[-83.02905,35.55187]}},{"type":"Feature","properties":{"Name":"Sturgills Tree Farm","State":"NC","City":"Jefferson"},"geometry":{"type":"Point","coordinates":[-81.50102,36.42552]}},{"type":"Feature","properties":{"Name":"Appalachian Evergreens","State":"NC","City":"Boone"},"geometry":{"type":"Point","coordinates":[-81.65854,36.23591]}},{"type":"Feature","properties":{"Name":"Sugar Plum Farm","State":"NC","City":"Newland"},"geometry":{"type":"Point","coordinates":[-81.98997,36.05026]}},{"type":"Feature","properties":{"Name":"Helms Christmas Tree Farm","State":"NC","City":"Vale"},"geometry":{"type":"Point","coordinates":[-81.41789,35.51347]}},{"type":"Feature","properties":{"Name":"Smoky Mountain Christmas Tree Farm","State":"NC","City":"Waynesville"},"geometry":{"type":"Point","coordinates":[-83.03257,35.5585]}},{"type":"Feature","properties":{"Name":"Circle C Tree Farms","State":"NC","City":"Boone"},"geometry":{"type":"Point","coordinates":[-81.62545,36.21009]}},{"type":"Feature","properties":{"Name":"Panoramic View Christmas Tree Farm","State":"NC","City":"Boone"},"geometry":{"type":"Point","coordinates":[-81.64181,36.27264]}},{"type":"Feature","properties":{"Name":"C & J Christmas Tree Farm","State":"NC","City":"Boone"},"geometry":{"type":"Point","coordinates":[-81.6503,36.23888]}},{"type":"Feature","properties":{"Name":"Mistletow Meadows ","State":"NC","City":"Laurel Springs"},"geometry":{"type":"Point","coordinates":[-81.30045,36.40476]}}]}